,City,Cloudiness,Country,Date,Humidity,Lat,Lng,Max Temp,Wind Speed
0,Busselton,3,AU,1559407833,52,-33.64,115.35,55.99,13.47
1,Haines Junction,86,CA,1559407834,44,60.75,-137.51,48.57,6.2
2,Bandarbeyla,100,SO,1559407835,71,9.49,50.81,80.61,7.78
3,Carnarvon,0,ZA,1559407837,39,-30.97,22.13,56.67,5.1
4,Ushuaia,75,AR,1559407838,77,-54.81,-68.31,37.4,17.22
5,Hobart,20,AU,1559407840,81,-42.88,147.33,45.0,3.36
6,Chau Doc,77,VN,1559407841,78,10.71,105.12,82.23,4.18
7,Torbay,90,CA,1559407843,80,47.66,-52.73,46.0,8.05
8,Hermanus,1,ZA,1559407844,90,-34.42,19.24,59.0,13.02
9,Barcelona,0,ES,1559407628,56,41.38,2.18,80.01,19.46
10,Punta Arenas,90,CL,1559407847,86,-53.16,-70.91,41.0,24.16
11,Kimbe,100,PG,1559407848,78,-5.56,150.15,77.55,7.72
12,Bredasdorp,27,ZA,1559407849,72,-34.53,20.04,62.6,6.93
13,Launceston,1,AU,1559407851,93,-41.43,147.14,41.0,4.7
14,Severo-Kurilsk,100,RU,1559407852,93,50.68,156.12,40.65,12.91
15,Xining,57,CN,1559407853,73,36.62,101.77,42.81,3.71
16,Vanimo,76,PG,1559407855,76,-2.67,141.3,83.31,15.46
17,Saint-Philippe,40,CA,1559407856,42,45.36,-73.48,66.99,5.82
18,Lorengau,98,PG,1559407857,88,-2.02,147.27,78.81,6.58
19,Te Anau,60,NZ,1559407859,96,-45.41,167.72,33.63,3.13
20,Touros,40,BR,1559407861,62,-5.2,-35.46,87.8,12.75
21,Tiksi,33,RU,1559407862,96,71.64,128.87,31.83,7.14
22,Natal,20,BR,1559407863,58,-5.81,-35.21,87.8,16.11
23,Kapaa,75,US,1559407865,83,22.08,-159.32,75.2,11.41
24,Atambua,76,ID,1559407747,73,-9.11,124.89,81.15,21.88
25,Upernavik,39,GL,1559407867,86,72.79,-56.15,31.29,3.98
26,Atuona,19,PF,1559407869,78,-9.8,-139.03,81.69,13.06
27,Vrangel,0,RU,1559407870,75,42.73,133.08,47.49,2.48
28,Port Keats,25,AU,1559407871,39,-14.25,129.55,71.61,20.0
29,Aksarka,50,RU,1559407873,77,66.56,67.8,38.31,12.39
30,Nanortalik,2,GL,1559407874,81,60.14,-45.24,36.51,8.25
31,Saskylakh,27,RU,1559407875,78,71.97,114.09,38.85,9.73
32,Rikitea,100,PF,1559407877,76,-23.12,-134.97,73.77,20.8
33,San Cristobal,75,EC,1559407879,49,-0.39,-78.55,68.0,5.82
34,Yeppoon,90,AU,1559407881,71,-23.13,150.74,57.2,6.93
35,Nikolskoye,0,RU,1559407882,39,59.7,30.79,64.99,6.71
36,Tulum,75,MX,1559407883,74,20.21,-87.46,87.01,13.87
37,Esperance,40,TT,1559407884,49,10.24,-61.45,89.6,11.41
38,Puerto Ayora,20,EC,1559407639,74,-0.74,-90.35,80.6,18.34
39,Kieta,75,PG,1559407888,73,-6.22,155.63,83.85,8.34
40,Geraldton,75,CA,1559407889,37,49.72,-86.95,55.4,3.36
41,Huangmei,11,CN,1559407890,94,30.1,115.95,68.55,1.68
42,Yerbogachen,83,RU,1559407892,53,61.28,108.01,50.19,5.08
43,Ribeira Grande,75,PT,1559407893,88,38.52,-28.7,69.8,16.11
44,Airai,82,TL,1559407895,75,-8.93,125.41,73.95,10.31
45,Gat,0,SN,1559407896,51,14.69,-16.54,82.4,18.34
46,Casimcea,20,RO,1559407897,69,44.71,28.38,80.6,6.93
47,Cherskiy,86,RU,1559407899,73,68.75,161.3,41.55,12.41
48,Constantine,40,DZ,1559407900,35,36.36,6.61,71.6,8.05
49,Humboldt,8,CA,1559407901,37,52.21,-105.12,65.31,6.29
50,Katsuura,75,JP,1559407903,88,33.93,134.5,68.0,2.24
51,Karratha,0,AU,1559407904,15,-20.74,116.85,64.77,16.93
52,Morondava,0,MG,1559407906,72,-20.3,44.28,77.19,11.23
53,Gravdal,75,NO,1559407907,76,59.79,5.78,54.0,9.17
54,Umm Kaddadah,76,SD,1559407909,22,13.6,26.69,91.77,6.26
55,Hami,0,CN,1559407910,13,42.84,93.51,74.13,20.49
56,Columbus,40,US,1559407648,40,32.46,-84.99,91.0,11.41
57,Tilichiki,99,RU,1559407913,85,60.47,166.1,43.17,6.04
58,Provideniya,43,RU,1559407914,72,64.42,-173.23,41.73,0.94
59,Sorland,16,NO,1559407915,84,67.67,12.69,43.89,18.54
60,Beloha,14,MG,1559407916,77,-25.17,45.06,67.11,13.49
61,Hilo,75,US,1559407889,78,19.71,-155.08,71.6,4.7
62,Bluff,100,AU,1559407919,83,-23.58,149.07,55.59,8.66
63,Cape Town,0,ZA,1559407877,93,-33.93,18.42,59.0,10.29
64,Yumen,0,CN,1559407922,15,40.29,97.04,69.27,6.04
65,Kavieng,52,PG,1559407923,76,-2.57,150.8,84.03,13.4
66,Clyde River,5,CA,1559407925,80,70.47,-68.59,39.2,4.7
67,Christchurch,97,NZ,1559407926,93,-43.53,172.64,39.99,12.75
68,Bouna,100,CI,1559407927,82,9.27,-3.0,78.45,6.38
69,Moerai,0,PF,1559407929,76,-22.43,-151.33,75.39,13.0
70,Faanui,0,PF,1559407930,71,-16.48,-151.75,81.51,8.14
71,Sandy Bay,20,AU,1559407932,81,-42.9,147.33,45.0,3.36
72,Lompoc,90,US,1559407912,87,34.64,-120.46,59.0,4.29
73,Batemans Bay,1,AU,1559407934,86,-35.71,150.18,48.99,1.99
74,Palu,100,ID,1559407918,81,-0.9,119.87,78.45,3.6
75,Mataura,33,NZ,1559407937,87,-46.19,168.86,43.17,5.32
76,Bethel,90,US,1559407939,93,60.79,-161.76,51.8,7.14
77,Kasongo,100,CD,1559407940,75,-4.43,26.67,77.73,6.02
78,Lata,42,IN,1559407942,68,30.78,78.62,35.79,9.98
79,Malakwal,0,PK,1559407943,14,32.55,73.21,98.97,7.47
80,Brae,100,GB,1559407944,93,60.4,-1.35,53.6,14.99
81,Nuuk,90,GL,1559407718,56,64.17,-51.74,35.6,11.41
82,Fukue,75,JP,1559407947,77,35.03,136.69,69.8,5.82
83,Khatanga,90,RU,1559407948,93,71.98,102.47,41.19,7.34
84,Chokurdakh,100,RU,1559407949,90,70.62,147.9,31.11,11.34
85,Saint George,20,GR,1559407951,53,39.45,22.34,77.0,11.41
86,Thompson,90,CA,1559407952,47,55.74,-97.86,41.0,8.05
87,Dalnegorsk,20,RU,1559407954,95,44.56,135.58,44.25,4.92
88,Kavaratti,97,IN,1559407939,69,10.57,72.64,86.19,4.18
89,Hithadhoo,70,MV,1559407956,76,-0.6,73.08,84.21,8.93
90,Roswell,1,US,1559407827,57,33.39,-104.52,79.0,10.29
91,Lebu,92,ET,1559407959,73,8.96,38.73,61.35,1.88
92,Tura,0,IN,1559407693,77,25.52,90.21,78.99,5.61
93,Lavrentiya,62,RU,1559407962,74,65.58,-170.99,39.93,5.66
94,Iwanai,2,JP,1559407963,93,42.97,140.51,49.65,7.76
95,Noumea,75,NC,1559407965,88,-22.28,166.46,62.6,3.36
96,Makakilo City,75,US,1559407966,69,21.35,-158.09,80.6,11.41
97,San Angelo,1,US,1559407771,61,31.46,-100.44,84.99,6.93
98,Gewane,82,ET,1559407968,35,10.16,40.66,91.77,6.15
99,Praia da Vitoria,75,PT,1559407970,69,38.73,-27.07,77.0,15.01
100,Port-Gentil,20,GA,1559407971,78,-0.72,8.78,80.6,12.75
101,Kapuskasing,75,CA,1559407973,43,49.42,-82.43,51.8,2.24
102,Vaini,77,IN,1559407974,78,15.34,74.49,81.69,2.1
103,Sao Filipe,7,CV,1559407975,86,14.9,-24.5,73.23,18.12
104,Inuvik,20,CA,1559407977,34,68.36,-133.71,51.8,12.75
105,Yellowknife,75,CA,1559407978,61,62.45,-114.38,46.4,13.87
106,Dongsheng,0,CN,1559407980,85,29.72,112.52,70.53,7.65
107,New Norfolk,20,AU,1559407981,81,-42.78,147.06,45.0,3.36
108,Itarema,34,BR,1559407982,74,-2.92,-39.92,84.57,10.31
109,Norman Wells,90,CA,1559407984,71,65.28,-126.83,50.0,4.7
110,Le Creusot,0,FR,1559407985,42,46.81,4.43,82.4,5.82
111,Port Hedland,0,AU,1559407987,21,-20.31,118.58,60.8,9.17
112,Laguna,90,MX,1559407988,69,27.52,-110.01,78.8,9.17
113,Le Port,20,FR,1559407989,34,42.87,1.37,81.0,12.75
114,Zalantun,0,CN,1559407991,93,48.0,122.72,42.45,5.12
115,Alofi,0,NU,1559407992,93,-19.06,-169.92,60.8,1.12
116,Kysyl-Syr,70,RU,1559407993,62,63.9,122.77,46.95,4.52
117,Nanakuli,75,US,1559407995,69,21.39,-158.15,80.6,11.41
118,Port Alfred,0,ZA,1559407996,92,-33.59,26.89,62.01,1.99
119,Souillac,0,FR,1559407998,33,45.6,-0.6,89.01,8.05
120,Ulaangom,43,MN,1559407999,42,49.98,92.07,55.23,1.81
121,Otjimbingwe,0,NA,1559408000,25,-22.35,16.13,63.15,4.36
122,Georgetown,75,GY,1559407791,79,6.8,-58.16,84.2,16.11
123,Piopio,75,CL,1559408003,81,-42.79,-73.57,51.8,11.41
124,Zhigansk,96,RU,1559408005,62,66.77,123.37,51.81,4.16
125,Alta Floresta,40,BR,1559408006,49,-9.87,-56.08,93.2,4.7
126,Tlanchinol,50,MX,1559408007,41,20.99,-98.66,84.75,6.73
127,Albany,75,US,1559408009,46,42.65,-73.75,77.0,8.05
128,Victoria,75,BN,1559408010,94,5.28,115.24,82.4,4.56
129,Ponta do Sol,3,BR,1559408012,59,-20.63,-46.0,77.37,7.31
130,Mahebourg,75,MU,1559407819,94,-20.41,57.7,75.2,8.05
131,Boyolangu,76,ID,1559408014,92,-8.09,111.9,71.97,5.73
132,Puri,52,ID,1559408015,85,-7.54,112.45,74.13,7.11
133,Nhulunbuy,75,AU,1559408017,73,-12.18,136.78,77.0,16.11
134,Kodiak,1,US,1559408018,33,39.95,-94.76,84.0,4.7
135,Quatre Cocos,75,MU,1559408020,94,-20.21,57.76,75.2,8.05
136,Sukumo,96,JP,1559408021,88,32.94,132.72,65.13,3.89
137,Boende,84,CD,1559408022,68,-0.28,20.88,80.25,1.45
138,Portlethen,93,GB,1559408023,63,57.05,-2.13,62.01,12.75
139,Taguatinga,75,BR,1559408025,39,-15.83,-48.06,84.2,4.7
140,Nkoteng,38,CM,1559408026,86,4.5,12.12,74.67,3.06
141,Longyearbyen,20,NO,1559408028,64,78.22,15.63,33.8,19.46
142,Vizinga,46,RU,1559408029,82,61.08,50.08,51.27,5.91
143,Kirakira,60,SB,1559408030,83,-10.46,161.92,79.53,13.04
144,Avarua,2,CK,1559408032,88,-21.21,-159.78,75.2,8.05
145,Port Blair,100,IN,1559408033,76,11.67,92.75,85.47,7.96
146,Kandi,100,BJ,1559408035,53,11.13,2.93,88.53,6.42
147,Cockburn Town,1,TC,1559407900,77,21.46,-71.14,81.87,15.01
148,Avera,40,US,1559408037,33,33.19,-82.53,91.0,11.41
149,Saint-Pierre,0,FR,1559408039,44,48.95,4.24,82.4,3.36
150,Tuatapere,69,NZ,1559408040,70,-46.13,167.69,50.73,20.74
151,Port-Cartier,75,CA,1559407764,37,50.03,-66.88,53.6,17.22
152,Todos Santos,5,MX,1559408043,57,23.45,-110.23,82.0,11.41
153,Charters Towers,98,AU,1559408044,78,-20.07,146.27,57.75,13.29
154,Agnibilekrou,100,CI,1559408045,98,7.13,-3.2,74.13,2.64
155,Plettenberg Bay,65,ZA,1559408047,90,-34.05,23.37,57.21,0.74
156,Sambava,69,MG,1559408048,98,-14.27,50.17,69.63,1.5
157,Jamestown,29,AU,1559408049,93,-33.21,138.6,47.49,4.63
158,Barrow,57,AR,1559408051,47,-38.31,-60.23,63.15,12.01
159,Constitucion,90,MX,1559408052,40,23.99,-104.67,71.6,7.74
160,Ferrol,0,ES,1559408054,50,43.48,-8.23,84.2,3.36
161,Flinders,64,AU,1559408055,93,-34.58,150.85,60.01,10.29
162,Richards Bay,2,ZA,1559408057,72,-28.77,32.06,71.25,5.59
163,Dikson,87,RU,1559408058,95,73.51,80.55,31.47,13.22
164,Whitehaven,1,US,1559408059,45,35.03,-90.03,87.01,9.17
165,Garowe,78,SO,1559408060,56,8.41,48.48,82.59,7.07
166,Taseyevo,86,RU,1559408062,83,57.22,94.9,37.77,6.51
167,Idritsa,65,RU,1559408063,66,56.33,28.9,58.47,1.32
168,La Primavera,20,AR,1559407941,76,-32.92,-68.67,50.0,5.82
169,Sinnai,20,IT,1559408066,49,39.3,9.2,75.2,10.29
170,Saint-Georges,0,CA,1559408068,47,46.12,-70.67,63.0,3.0
171,Namibe,16,AO,1559408069,84,-15.19,12.15,66.93,11.48
172,Iqaluit,20,CA,1559408070,35,63.75,-68.52,35.6,5.82
173,Sao Joao da Barra,0,BR,1559408040,55,-21.64,-41.05,89.6,6.93
174,Chicama,0,PE,1559408073,77,-7.84,-79.15,69.8,9.17
175,Clifton,90,AU,1559408075,81,-27.93,151.91,53.6,4.7
176,Synya,100,RU,1559408076,91,65.37,58.04,50.19,8.1
177,Hambantota,91,LK,1559408077,82,6.12,81.12,82.95,17.98
178,Methoni,20,GR,1559408079,43,36.82,21.7,73.4,9.17
179,Leningradskiy,0,RU,1559408080,90,69.38,178.42,30.39,9.26
180,Chino Valley,1,US,1559407926,21,34.76,-112.45,80.01,17.22
181,Eureka,90,US,1559407912,100,40.8,-124.16,55.99,3.36
182,Tasiilaq,20,GL,1559408084,74,65.61,-37.64,35.6,6.93
183,Castro,75,CL,1559408086,81,-42.48,-73.76,51.8,11.41
184,Ilulissat,20,GL,1559408087,56,69.22,-51.1,41.0,6.93
185,Price,1,US,1559408089,32,39.6,-110.81,70.0,18.34
186,Klaksvik,100,FO,1559408090,75,62.23,-6.59,46.4,14.99
187,Vila do Maio,20,CV,1559408091,54,15.13,-23.22,82.4,14.99
188,Cap Malheureux,75,MU,1559408093,94,-19.98,57.61,75.2,8.05
189,Punta de Bombon,36,PE,1559408094,75,-17.17,-71.79,63.69,8.3
190,Kaitangata,37,NZ,1559408096,84,-46.28,169.85,42.81,9.06
191,Chapais,90,CA,1559408097,57,49.78,-74.86,48.2,11.41
192,Verkhoyansk,25,RU,1559408098,77,67.55,133.39,43.53,9.93
193,Najran,75,SA,1559408099,22,17.54,44.22,91.4,11.41
194,Moose Factory,90,CA,1559408101,75,51.26,-80.61,46.4,6.93
195,Kangaatsiaq,9,GL,1559408102,78,68.31,-53.46,36.87,13.15
196,Beringovskiy,84,RU,1559408103,72,63.05,179.32,41.19,3.71
197,Halifax,40,CA,1559407924,34,44.65,-63.58,70.0,6.93
198,Nahan,20,IN,1559408106,47,30.56,77.29,95.0,8.05
199,Vila Velha,40,BR,1559408108,66,-3.71,-38.6,86.0,17.22
200,Meulaboh,99,ID,1559408009,77,4.14,96.13,81.87,5.88
201,Talnakh,90,RU,1559408110,94,69.49,88.39,32.0,8.95
202,Lisakovsk,21,KZ,1559408112,46,52.55,62.49,71.07,5.61
203,Aitape,90,PG,1559408113,76,-3.15,142.36,81.51,8.95
204,Sitka,2,US,1559408114,35,37.17,-99.65,87.09,7.34
205,Coquimbo,0,CL,1559408116,59,-29.95,-71.34,66.0,5.82
206,Cidreira,100,BR,1559408117,82,-30.17,-50.22,63.51,10.69
207,Buzdyak,68,RU,1559408118,91,54.57,54.53,65.67,7.94
208,Hauterive,0,FR,1559408120,25,46.09,3.45,86.0,4.7
209,Sisimiut,4,GL,1559408121,72,66.94,-53.67,38.67,15.99
210,Jizan,40,SA,1559408123,59,16.89,42.56,93.2,11.41
211,Wilmington,1,US,1559407833,57,39.75,-75.55,82.99,5.82
212,Warman,40,CA,1559408125,29,52.32,-106.58,68.0,10.29
213,Bambous Virieux,75,MU,1559408127,94,-20.34,57.76,75.2,8.05
214,Aginskoye,32,RU,1559408128,58,51.11,114.54,45.87,2.01
215,Margate,20,AU,1559408129,81,-43.03,147.26,45.0,3.36
216,Aldershot,92,GB,1559408130,44,51.25,-0.76,80.01,10.29
217,Itoman,75,JP,1559408132,88,26.12,127.67,78.8,8.05
218,Oistins,40,BB,1559408133,62,13.07,-59.53,86.0,18.34
219,Diu,16,IN,1559408135,87,20.71,70.98,82.77,11.12
220,Morogoro,40,TZ,1559408136,88,-6.82,37.67,73.4,4.61
221,Farmington,1,US,1559408075,26,36.73,-108.21,78.01,6.93
222,Srednekolymsk,0,RU,1559408139,77,67.46,153.71,38.49,10.4
223,Komsomolskiy,99,RU,1559408140,86,67.55,63.78,34.35,12.88
224,High Level,40,CA,1559408142,54,58.52,-117.13,55.4,13.87
225,Balkanabat,0,TM,1559408143,48,39.51,54.36,77.73,8.16
226,Ponta Delgada,75,PT,1559408124,93,37.73,-25.67,66.2,13.87
227,Palauig,96,PH,1559408145,73,15.44,119.9,87.45,8.72
228,Narimanov,0,RU,1559408147,32,46.69,47.85,84.2,6.71
229,Vila Nova de Milfontes,0,PT,1559408148,69,37.72,-8.78,71.01,10.0
230,Bilimbay,0,RU,1559408150,63,56.96,59.82,62.6,6.71
231,Qaanaaq,100,GL,1559408151,79,77.48,-69.36,27.33,6.33
232,El Dorado,53,VE,1559408153,64,6.71,-61.64,84.75,3.44
233,Rosario,75,UY,1559408154,72,-34.31,-57.35,64.0,6.93
234,Butaritari,89,KI,1559408156,72,3.07,172.79,82.41,2.91
235,Okha,98,RU,1559408157,97,53.59,142.95,35.79,7.52
236,Hofn,100,IS,1559408159,74,64.25,-15.21,31.47,5.95
237,Palotina,47,BR,1559408160,83,-24.28,-53.84,70.35,4.03
238,Vila Franca do Campo,75,PT,1559408161,93,37.72,-25.43,66.2,13.87
239,Whitehorse,75,CA,1559408163,61,60.72,-135.06,50.0,8.05
240,Ismailia,0,EG,1559408164,26,30.6,32.27,91.4,17.22
241,Merke,100,KZ,1559408166,49,42.87,73.19,71.07,9.15
242,Hasaki,75,JP,1559408167,100,35.73,140.83,63.0,2.24
243,Hargeysa,100,SO,1559408169,73,9.56,44.06,72.51,5.66
244,Timra,100,SE,1559408170,87,62.49,17.33,51.8,4.7
245,Padang,100,ID,1559408172,76,-0.92,100.36,81.51,3.38
246,East London,0,ZA,1559408173,88,-33.02,27.91,64.4,8.05
247,Clarence Town,90,AU,1559408174,100,-32.59,151.78,57.0,6.93
248,Karatsu,75,JP,1559408176,77,33.45,129.97,69.8,2.24
249,Siocon,81,PH,1559408177,84,11.03,124.04,81.15,6.4
250,Luyang,0,CN,1559408178,73,31.88,117.26,69.8,4.47
251,Fangshan,0,CN,1559408180,68,39.75,116.14,70.0,6.71
252,Guerrero Negro,80,MX,1559408181,77,27.97,-114.04,64.05,7.81
253,Dali,64,CN,1559408182,89,25.6,100.24,54.51,4.45
254,Yaan,69,NG,1559408184,58,7.38,8.57,85.83,4.16
255,Comodoro Rivadavia,40,AR,1559408185,76,-45.87,-67.48,51.8,4.7
256,Liancheng,0,CN,1559408187,87,24.05,105.06,60.99,2.8
257,Ahipara,100,NZ,1559408188,67,-35.17,173.16,57.57,28.1
258,Formosa,75,AR,1559408161,82,-26.19,-58.17,66.2,3.36
259,Mutis,7,CO,1559408191,75,6.23,-77.4,82.77,11.07
260,Ambon,0,FR,1559408192,44,47.55,-2.56,78.01,11.41
261,Nueva Loja,75,EC,1559408194,74,0.08,-76.88,86.0,5.82
262,Sept-Iles,75,CA,1559408195,37,50.2,-66.38,53.6,17.22
263,Beidao,4,CN,1559408196,57,34.57,105.89,55.77,4.92
264,Yingkou,36,CN,1559408198,44,40.67,122.24,62.61,9.26
265,Fortuna,0,ES,1559408199,43,38.18,-1.13,82.4,8.05
266,Lagoa,0,PT,1559408201,39,37.14,-8.45,81.0,12.75
267,Mount Gambier,90,AU,1559408203,100,-37.83,140.78,48.2,5.82
268,Jaguey Grande,40,CU,1559408204,66,22.53,-81.13,87.8,4.7
269,Cervo,40,BR,1559408206,57,-22.19,-46.24,75.2,7.7
270,Covington,1,US,1559408207,45,35.56,-89.65,87.01,9.17
271,Atar,0,MR,1559408208,7,20.52,-13.05,104.91,8.93
272,Arraial do Cabo,40,BR,1559408210,78,-22.97,-42.02,82.4,9.17
273,Yueyang,0,CN,1559408211,92,29.36,113.12,67.83,7.4
274,San Patricio,92,PY,1559408212,83,-26.98,-56.83,65.85,4.9
275,Tigil,95,RU,1559408214,85,57.8,158.67,47.85,4.36
276,La Reforma,75,GT,1559408215,70,14.8,-91.82,86.0,2.24
277,Fiditi,100,NG,1559408217,62,7.71,3.92,84.03,6.67
278,Letpadan,100,MM,1559408218,66,17.78,95.75,86.37,10.07
279,Carhuamayo,1,PE,1559408219,21,-10.92,-76.06,58.65,10.74
280,Zhangjiakou,62,CN,1559408221,65,40.77,114.88,53.07,7.0
281,Maceio,40,BR,1559408222,66,-9.67,-35.74,84.2,3.36
282,Camacha,0,PT,1559408223,64,33.08,-16.33,86.0,19.46
283,Solnechnyy,83,RU,1559408225,96,50.72,136.64,40.47,3.53
284,Kruisfontein,33,ZA,1559408226,93,-34.0,24.73,56.13,0.34
285,Qaqortoq,40,GL,1559408227,71,60.72,-46.03,46.4,10.29
286,Santa Rosa de Aguan,100,HN,1559408229,68,15.95,-85.71,85.29,7.67
287,Bria,98,CF,1559408230,68,6.54,21.99,78.99,2.71
288,Bideford,0,GB,1559408231,77,51.02,-4.21,72.0,8.05
289,Marienburg,0,DE,1559408233,47,52.12,9.98,78.8,6.93
290,Mwinilunga,90,ZM,1559408234,56,-11.73,24.43,58.47,2.71
291,Saldanha,0,PT,1559408235,22,41.42,-6.55,84.93,12.48
292,Hendek,75,TR,1559408237,69,40.8,30.75,75.2,10.29
293,Namatanai,61,PG,1559408238,88,-3.66,152.44,78.45,11.86
294,Nantucket,90,US,1559408239,87,41.28,-70.1,73.0,6.93
295,Sola,75,NO,1559408241,87,58.89,5.65,51.8,8.05
296,Nalut,0,LY,1559408242,45,31.86,10.98,69.09,20.4
297,Aalen,0,DE,1559408244,47,48.84,10.09,82.0,3.36
298,Laurel,20,US,1559408245,55,45.67,-108.77,69.01,4.7
299,Newry,75,GB,1559408246,63,54.18,-6.34,64.4,6.93
300,Aklavik,5,CA,1559408248,70,68.22,-135.01,51.8,6.93
301,Port Lincoln,93,AU,1559408249,65,-34.72,135.86,60.09,7.87
302,La Romana,40,DO,1559408251,66,18.43,-68.97,86.0,11.41
303,Nizhniy Baskunchak,0,RU,1559408252,34,48.22,46.83,81.87,8.37
304,Zyryanka,60,RU,1559408253,66,65.73,150.89,48.57,10.18
305,Ostrovnoy,100,RU,1559408255,57,68.05,39.51,48.75,16.98
306,Kalmunai,78,LK,1559408256,80,7.42,81.82,78.81,1.32
307,Pakhtakoron,24,UZ,1559408257,53,40.16,68.75,75.93,1.99
308,Xuddur,98,SO,1559408259,71,4.12,43.89,77.91,15.08
309,Mar del Plata,100,AR,1559408260,82,-46.43,-67.52,47.49,13.51
310,Ixtapa,90,MX,1559408261,88,20.71,-105.21,78.01,5.82
311,Veraval,0,FR,1559408263,47,49.65,0.71,82.99,8.05
312,Zhanakorgan,43,KZ,1559408264,34,43.91,67.25,79.17,5.46
313,Waddan,63,LY,1559408266,35,29.16,16.14,84.39,13.94
314,Saint-Augustin,0,FR,1559408267,33,44.83,-0.61,93.0,6.93
315,Tuktoyaktuk,20,CA,1559408268,82,69.44,-133.03,42.8,11.41
316,Beruwala,84,LK,1559408270,81,6.48,79.98,83.67,17.22
317,Twentynine Palms,1,US,1559408271,23,34.14,-116.05,86.0,6.55
318,Evensk,100,RU,1559408272,63,61.92,159.24,53.61,4.32
319,Cabo San Lucas,5,MX,1559408176,77,22.89,-109.91,82.0,23.04
320,Okhotsk,80,RU,1559408275,94,59.36,143.24,38.49,3.58
321,Luderitz,0,NA,1559408276,77,-26.65,15.16,59.0,18.34
322,Suez,1,EG,1559408277,31,29.97,32.54,83.13,13.22
323,Khani,40,GE,1559408279,50,41.96,42.96,77.0,11.41
324,Gornopravdinsk,0,RU,1559408281,66,60.06,69.92,47.67,4.97
325,Atherton,94,GB,1559408165,68,53.52,-2.49,72.0,2.24
326,Bose,0,IT,1559408284,44,45.46,8.01,84.0,2.24
327,Nara,98,JP,1559408285,73,34.68,135.8,69.8,6.93
328,Praia,20,BR,1559408286,30,-20.25,-43.81,84.2,10.29
329,Sokolo,76,ML,1559408288,7,14.74,-6.12,109.05,7.7
330,Dunedin,69,NZ,1559408289,84,-45.87,170.5,41.0,15.99
331,Kumluca,88,TR,1559408291,51,36.37,30.29,67.29,2.53
332,Bubaque,6,GW,1559408292,79,11.28,-15.83,79.53,14.14
333,Tambacounda,0,SN,1559408294,43,13.77,-13.67,105.8,6.93
334,Concepcion del Uruguay,60,AR,1559408198,63,-32.48,-58.24,68.0,3.0
335,Santa Maria,90,BR,1559408297,88,-29.69,-53.81,62.6,6.93
336,Homer,90,US,1559408299,76,59.64,-151.54,52.0,5.84
337,Harper,40,US,1559408300,58,30.3,-99.24,86.0,10.29
338,Moscow,0,RU,1559408121,49,55.75,37.62,69.8,11.18
339,Oranjestad,75,AW,1559408275,62,12.52,-70.03,87.8,12.75
340,Smithers,75,CA,1559408304,82,54.78,-127.17,55.4,4.7
341,Isangel,99,VU,1559408305,75,-19.55,169.27,74.49,16.33
342,Abu Samrah,55,SY,1559408307,21,35.3,37.18,88.17,10.92
343,Reyes,75,BO,1559408308,74,-14.3,-67.34,86.0,6.93
344,Harnoli,0,PK,1559408310,10,32.28,71.55,103.11,3.29
345,Lyuban,7,BY,1559408311,86,52.8,28.0,63.87,3.91
346,Alausi,59,EC,1559408313,83,-2.2,-78.83,64.95,6.62
347,Marawi,100,PH,1559408314,89,8.0,124.29,79.0,3.0
348,Katherine,43,AU,1559408316,48,-14.47,132.26,62.6,8.05
349,Macultepec,75,MX,1559408317,62,18.17,-92.83,86.0,9.71
350,Panguna,58,PG,1559408318,80,-6.32,155.48,82.95,19.39
351,Conway,1,US,1559408320,54,35.09,-92.44,87.01,4.7
352,Myra,50,NO,1559408321,58,58.75,8.86,53.61,16.44
353,Novikovo,100,UA,1559408323,79,45.05,34.56,70.17,3.56
354,Beroroha,2,MG,1559408324,58,-21.68,45.17,69.45,2.59
355,Husavik,1,CA,1559408326,46,50.56,-96.99,62.01,3.0
356,Deputatskiy,8,RU,1559408327,94,69.3,139.9,38.85,2.84
357,Pedernales,81,EC,1559408328,82,0.07,-80.05,78.09,11.54
358,Pocoes,0,BR,1559408330,39,-14.53,-40.37,82.4,9.17
359,Almaznyy,0,RU,1559408331,58,48.03,40.04,82.4,4.47
360,Narsaq,40,GL,1559408333,71,60.91,-46.05,46.4,10.29
361,Sao Jose da Coroa Grande,40,BR,1559408334,67,-8.9,-35.15,83.31,8.77
362,Cabedelo,40,BR,1559408335,66,-6.97,-34.84,86.0,13.87
363,Kununurra,3,AU,1559408337,26,-15.77,128.74,69.8,14.99
364,Severobaykalsk,100,RU,1559408338,98,55.65,109.32,35.25,4.52
365,Havoysund,91,NO,1559408339,93,71.0,24.66,41.0,19.46
366,Vestmanna,100,FO,1559408341,75,62.16,-7.17,46.4,14.99
367,Jardim,67,BR,1559408342,85,-21.48,-56.15,70.53,10.45
368,College,90,US,1559408170,100,64.86,-147.8,53.01,8.05
369,Kurilsk,94,RU,1559408345,88,45.23,147.88,48.93,11.12
370,Birecik,0,TR,1559408346,30,37.03,37.98,86.0,5.82
371,Guantanamo,40,BO,1559408348,62,-16.14,-62.05,86.0,13.87
372,Carmen,100,PH,1559408349,82,7.2,124.8,77.37,1.05
373,Dandeli,62,IN,1559408351,92,15.25,74.62,73.59,5.57
374,Vardo,1,US,1559408352,44,39.62,-77.74,82.99,4.7
375,Half Moon Bay,20,US,1559408353,77,37.46,-122.43,71.01,5.82
376,Hope,1,CA,1559408355,72,49.38,-121.43,72.0,9.17
377,Matagami,87,NG,1559408356,88,9.67,8.4,73.95,3.89
378,Muisne,75,EC,1559408358,79,0.61,-80.02,84.2,4.7
379,Gunjur,0,GM,1559408359,55,13.18,-16.76,86.0,16.11
380,Kosovo Polje,40,BA,1559408360,82,43.8,19.29,55.4,5.82
381,Severomuysk,3,RU,1559408361,61,56.17,113.57,33.99,2.01
382,Akdepe,0,TM,1559408363,39,42.05,59.39,80.6,16.11
383,Pevek,0,RU,1559408364,83,69.7,170.27,33.81,12.64
384,Taoudenni,0,ML,1559408366,8,22.68,-3.98,105.63,14.05
385,Worland,1,US,1559408367,52,44.02,-107.96,71.01,10.29
386,Thinadhoo,79,MV,1559408314,74,0.53,72.93,84.57,9.46
387,Summerside,40,CA,1559408370,31,46.39,-63.79,69.01,12.75
388,Port Elizabeth,1,US,1559408371,54,39.31,-74.98,84.0,3.36
389,Matara,0,PE,1559408372,43,-13.74,-72.9,55.4,7.47
390,Iquique,20,CL,1559408374,63,-20.22,-70.14,64.4,8.05
391,Nago,0,IT,1559408375,39,45.88,10.89,82.0,11.41
392,Brokopondo,40,SR,1559408376,59,5.06,-54.98,89.6,5.82
393,Alice Springs,40,AU,1559408381,80,-23.7,133.88,41.0,6.93
394,Shelburne,20,CA,1559408382,77,44.08,-80.2,73.99,4.7
395,Dingle,86,PH,1559408383,78,11.0,122.67,79.35,7.23
396,Sao Felix do Xingu,67,BR,1559408385,77,-6.64,-51.99,82.95,3.6
397,Salalah,20,OM,1559408386,74,17.01,54.1,87.8,9.17
398,Along,27,IN,1559408388,81,28.17,94.8,57.03,4.61
399,Pathein,100,MM,1559408254,82,16.78,94.73,82.41,5.39
400,Miracatu,78,BR,1559408391,98,-24.28,-47.45,69.81,3.02
401,Lufilufi,5,WS,1559408392,94,-13.87,-171.6,69.8,15.75
402,Kiri Buru,16,IN,1559408393,72,22.08,85.35,84.75,9.28
403,Hervey Bay,90,AU,1559408395,87,-25.3,152.85,62.01,6.93
404,Rocha,92,UY,1559408396,65,-34.48,-54.34,62.61,4.05
405,Scarborough,94,GB,1559408202,72,54.28,-0.41,70.0,1.12
406,Kitimat,75,CA,1559408399,76,54.02,-128.69,55.99,6.93
407,Lasa,20,CY,1559408400,88,34.92,32.53,77.0,13.87
408,Tapes,100,BR,1559408402,72,-30.67,-51.4,65.67,9.8
409,Gombong,74,ID,1559408404,77,-7.19,109.31,76.29,9.35
410,Nouadhibou,1,MR,1559408406,68,20.93,-17.03,71.6,19.46
411,Ulladulla,0,AU,1559408408,93,-35.36,150.48,48.99,10.29
412,Brigham City,1,US,1559408271,48,41.51,-112.02,70.0,6.93
413,Samsun,75,TR,1559408411,77,41.29,36.33,70.0,4.7
414,La Carolina,0,ES,1559408412,5,38.27,-3.62,90.0,9.46
415,Anadyr,0,RU,1559408413,68,64.73,177.51,37.4,8.95
416,Papara,20,BR,1559408415,62,-3.98,-38.73,86.0,17.22
417,Shache,99,CN,1559408416,50,38.42,77.24,80.01,16.96
418,Kahului,20,US,1559408418,64,20.89,-156.47,75.2,14.63
419,Manzhouli,12,CN,1559408419,60,49.6,117.43,48.75,2.42
420,San Policarpo,68,PH,1559408421,79,12.18,125.51,84.93,9.66
421,Lazaro Cardenas,5,MX,1559408422,44,28.39,-105.62,89.01,11.54
422,Los Llanos de Aridane,20,ES,1559408423,69,28.66,-17.92,73.4,14.99
423,Roald,75,NO,1559408425,70,62.58,6.12,51.8,5.82
424,Chor,27,PK,1559408426,31,25.52,69.77,98.07,20.11
425,Takoradi,85,GH,1559408428,92,4.89,-1.75,76.47,3.33
426,Ambulu,51,ID,1559408429,80,-8.35,113.61,78.81,10.63
427,Mangrol,2,IN,1559408430,14,25.33,76.51,104.19,8.68
428,Baruun-Urt,100,MN,1559408432,68,46.68,113.28,54.87,14.65
429,Chunskiy,26,RU,1559408433,67,56.08,99.63,38.13,4.03
430,Vyshkov,0,RU,1559408435,41,52.48,31.69,75.2,8.95
431,Port Hardy,90,CA,1559408296,71,50.7,-127.42,55.4,6.93
432,Buzmeyin,75,TM,1559408437,47,38.05,58.21,77.0,9.17
433,Sangar,66,RU,1559408439,83,63.92,127.47,47.85,5.01
434,Varkaus,0,FI,1559408440,66,62.32,27.87,57.0,2.24
435,Moree,90,AU,1559408442,54,-29.46,149.84,53.6,8.05
436,Boulder,1,US,1559408443,45,40.02,-105.27,73.0,4.7
437,Yar-Sale,5,RU,1559408444,89,66.83,70.83,26.25,7.09
438,Tual,28,ID,1559408446,81,-5.67,132.75,82.95,21.52
439,Bahia de Caraquez,40,EC,1559408448,69,-0.6,-80.42,82.4,2.24
440,Marabba,83,SD,1559408449,30,12.35,32.18,98.79,12.19
441,Romitan,0,UZ,1559408450,64,39.93,64.38,73.4,6.93
442,Rafai,96,CF,1559408452,79,4.95,23.92,75.39,0.89
443,Jieshi,98,CN,1559408453,84,22.82,115.83,78.81,3.58
444,Cherkessk,100,RU,1559408199,65,44.23,42.06,69.63,4.36
445,Kailua,40,US,1559408456,69,21.39,-157.74,80.6,10.29
446,Georgiyevskoye,18,RU,1559408458,85,44.16,39.25,70.53,3.11
447,Biak,97,ID,1559408459,99,-0.91,122.88,65.67,2.93
448,Nikki,100,BJ,1559408461,52,9.94,3.21,86.73,5.06
449,Luocheng,32,CN,1559408462,98,28.29,114.55,61.89,2.39
450,Chivay,1,PE,1559408463,22,-15.64,-71.6,53.97,11.05
451,Ranong,90,TH,1559408465,74,9.96,98.62,83.13,3.04
452,Tessalit,6,ML,1559408466,8,20.2,1.01,100.77,14.16
453,Prince Rupert,90,CA,1559408468,87,54.32,-130.32,50.0,8.05
454,Udachnyy,0,RU,1559408172,28,66.42,112.4,55.4,6.71
455,Dubai,0,AE,1559408322,36,25.27,55.3,95.0,5.82
456,Kandalaksha,98,RU,1559408471,60,67.15,32.41,45.15,10.54
457,Pithoro,1,PK,1559408473,35,25.52,69.38,96.27,18.75
458,Rawson,75,AR,1559408474,43,-43.3,-65.11,58.11,8.43
459,Lima,90,PE,1559408231,82,-12.06,-77.04,66.2,8.05
460,Bowen,90,AU,1559408477,82,-20.01,148.25,64.0,6.93
461,Thanh Hoa,40,VN,1559408478,100,10.21,106.33,80.6,1.12
462,Henties Bay,0,NA,1559408480,93,-22.12,14.28,55.0,8.99
463,Koshurnikovo,100,RU,1559408481,59,54.3,93.39,39.93,4.56
464,Helong,89,CN,1559408483,97,25.94,116.13,71.79,1.92
465,Buenos Aires,0,AR,1559408378,77,-34.61,-58.44,64.99,8.05
466,Zelenoborskiy,100,RU,1559408486,50,66.84,32.36,49.11,9.66
467,Zavyalovo,0,RU,1559408487,87,54.51,82.45,42.8,2.24
468,Walvis Bay,0,NA,1559408489,72,-22.95,14.51,59.0,9.17
469,Carupano,100,VE,1559408410,36,10.67,-63.26,94.83,3.56
470,Bonthe,67,SL,1559408491,72,7.53,-12.5,83.13,9.91
471,Santiago del Estero,25,AR,1559408419,54,-27.8,-64.26,67.83,5.55
472,Andros,99,GR,1559408497,73,37.83,24.93,73.99,6.93
473,Turan,97,RU,1559408499,87,52.15,93.92,42.99,2.91
474,Pangnirtung,20,CA,1559408500,60,66.15,-65.72,41.0,11.41
475,Sandwick,100,GB,1559408501,93,54.57,-2.89,66.0,6.93
476,Dudinka,90,RU,1559408503,100,69.41,86.18,30.2,8.95
477,Honiara,75,SB,1559408504,94,-9.43,159.96,77.0,3.36
478,Vestmannaeyjar,0,IS,1559408506,65,63.44,-20.27,46.4,24.16
479,Hachinohe,20,JP,1559408508,55,40.47,141.48,62.6,9.17
480,Ust-Tsilma,57,RU,1559408509,76,65.44,52.15,50.01,2.91
481,Whitecourt,75,CA,1559408510,67,54.14,-115.68,62.6,3.36
482,Melo,3,UY,1559408512,68,-32.37,-54.17,64.05,6.15
483,Bombay,75,US,1559408513,63,44.94,-74.57,64.99,9.17
484,Manggar,100,ID,1559408515,94,-2.88,108.27,76.83,3.04
485,Kijang,0,KR,1559408516,63,35.24,129.21,64.4,1.32
486,Ondjiva,0,AO,1559408518,18,-17.07,15.73,84.2,4.7
487,Valparaiso,90,US,1559408463,57,41.47,-87.06,82.99,5.82
488,Batagay,3,RU,1559408520,79,67.65,134.64,44.25,8.97
489,Pernem,75,IN,1559408522,79,15.72,73.8,84.2,6.93
490,Sale,94,GB,1559408523,68,53.42,-2.32,72.0,2.24
491,Mount Isa,0,AU,1559408524,37,-20.73,139.49,53.6,13.87
492,Kargalinskaya,35,RU,1559408526,40,43.74,46.48,76.11,12.39
493,Ampanihy,31,MG,1559408527,75,-24.69,44.75,67.83,13.02
494,Del Rio,90,US,1559408412,66,29.36,-100.9,84.2,10.29
495,Marsh Harbour,1,BS,1559408353,73,26.54,-77.06,80.61,2.95
496,Marystown,70,CA,1559408531,60,47.17,-55.16,53.97,5.97
497,Mnogovershinnyy,100,RU,1559408533,96,53.94,139.92,39.39,2.98
498,Murashi,36,RU,1559408534,80,59.4,48.97,52.35,6.62
499,Belyy Yar,40,RU,1559408536,87,53.6,91.39,53.6,2.24
500,Aksu,0,KZ,1559408537,93,52.04,76.93,57.2,11.18
501,Carballo,0,ES,1559408538,50,43.21,-8.69,84.99,3.36
502,Norilsk,90,RU,1559408540,100,69.35,88.2,30.2,8.95
503,Ihiala,100,NG,1559408541,95,5.86,6.86,75.75,4.68
504,Tipuani,31,BO,1559408542,75,-15.56,-68.02,63.51,6.53
505,Yulara,0,AU,1559408544,66,-25.24,130.99,48.2,8.05
506,Saquarema,20,BR,1559408545,83,-22.93,-42.51,82.4,9.17
507,Canon City,1,US,1559408547,62,39.46,-117.13,55.4,3.29
508,Panindicuaro,78,MX,1559408548,32,19.98,-101.76,82.59,6.62
509,Leshukonskoye,82,RU,1559408549,44,64.9,45.76,54.69,5.3
510,California City,1,US,1559408449,29,35.13,-117.99,82.0,8.05
511,Springfield,1,US,1559408552,57,37.22,-93.29,84.0,9.17
512,Funtua,89,NG,1559408554,45,11.52,7.31,87.27,4.61
513,Nome,40,US,1559408555,66,30.04,-94.42,90.0,2.17
514,Kirovskiy,25,RU,1559408557,87,45.09,133.51,49.65,5.17
515,Chiredzi,0,ZW,1559408558,53,-21.05,31.67,63.69,3.15
516,Myitkyina,33,MM,1559408560,90,25.38,97.4,69.99,2.13
517,Saint-Joseph,0,FR,1559408561,31,43.56,6.97,80.6,9.17
518,Portland,40,US,1559408274,72,45.52,-122.67,66.99,5.82
519,Freeport,20,BS,1559408414,62,26.54,-78.7,86.0,9.17
520,Vostok,31,RU,1559408565,97,46.45,135.83,44.07,4.52
521,Mehamn,100,NO,1559408567,95,71.03,27.85,39.21,9.84
522,Boralday,90,KZ,1559408568,33,43.36,76.86,77.0,8.95
523,Verkhnetulomskiy,20,RU,1559408570,70,68.61,31.8,44.6,8.95
524,Karasburg,0,NA,1559408571,32,-28.01,18.75,64.95,7.52
525,Saint-Francois,0,FR,1559408572,42,46.42,3.91,82.4,5.82
526,Belmonte,6,PT,1559408574,29,40.36,-7.35,88.0,7.0
527,Ubinskoye,65,RU,1559408575,81,55.31,79.68,51.63,3.24
528,Kungurtug,59,RU,1559408577,61,50.6,97.53,37.59,4.92
529,Pran Buri,56,TH,1559408578,95,12.39,99.9,73.05,3.24
530,Abu Kamal,0,SY,1559408579,12,34.45,40.92,97.53,12.5
531,Eufaula,1,US,1559408581,38,31.89,-85.15,93.0,5.82
532,Catuday,98,PH,1559408582,76,16.29,119.81,86.91,9.71
533,Sayyan,99,YE,1559408584,29,15.17,44.32,80.43,1.45
534,Mahon,75,IE,1559408585,100,51.89,-8.4,57.2,10.29
535,Ko Samui,70,TH,1559408586,75,9.54,99.94,84.39,6.44
536,Debre Tabor,84,ET,1559408588,41,11.86,38.01,71.97,5.48
537,Lokossa,100,BJ,1559408589,83,6.65,1.72,78.99,4.85
538,Mildura,40,AU,1559408590,87,-34.18,142.16,46.4,5.82
539,Hit,37,IQ,1559408592,13,33.64,42.83,95.73,6.89
540,Wanganui,100,NZ,1559408593,65,-39.93,175.05,50.0,24.0
541,Bodri,44,IN,1559408594,27,23.17,81.43,87.09,6.02
542,Santa Helena,96,BR,1559408596,90,-2.23,-45.3,81.69,3.65
543,Hamilton,75,BM,1559408586,78,32.3,-64.78,80.6,16.11
544,Tanout,75,NE,1559408599,25,14.97,8.88,97.17,10.89
545,La Spezia,20,IT,1559408498,53,44.11,9.83,75.0,9.17
546,Ossora,92,RU,1559408602,73,59.24,163.07,45.33,2.53
547,Outjo,0,NA,1559408603,30,-20.11,16.16,77.0,5.82
548,Sahuaripa,0,MX,1559408579,27,29.05,-109.23,90.15,7.09
549,Maibong,11,IN,1559408605,78,25.3,93.13,75.39,2.8
550,Aykhal,0,RU,1559408607,28,65.95,111.51,55.4,6.71
551,Sherlovaya Gora,43,RU,1559408608,50,50.53,116.31,50.19,3.24
552,Grand Gaube,75,MU,1559408609,94,-20.01,57.66,75.2,8.05
553,Sao Joao dos Patos,46,BR,1559408611,53,-6.5,-43.7,87.09,7.18
554,Tiznit,46,MA,1559408612,46,29.7,-9.73,80.61,19.35
555,Benghazi,100,LY,1559408614,73,32.12,20.07,71.07,16.08
556,Lewistown,1,US,1559408615,54,40.39,-90.15,82.99,14.99
557,Stuttgart,0,DE,1559408504,41,48.78,9.18,84.99,4.7
558,Lampa,75,CL,1559408618,62,-33.29,-70.87,64.4,2.24
559,Chuy,3,UY,1559408619,59,-33.69,-53.46,62.61,4.16
560,Pemba,75,MZ,1559408620,74,-12.97,40.52,78.8,11.41
561,Tarime,40,TZ,1559408622,78,-1.35,34.38,73.4,11.41
